$GPGSV,4,2,16,09,39,091,40,12,22,307,27,17,61,109,30,19,74,063,37*75
$GPGSV,4,3,16,23,18,055,,28,14,176,19,40,13,260,,41,38,242,*7E
$GPGSV,4,4,16,42,51,134,37,50,51,134,38,193,72,092,35,195,71,121,37*7C
$GSENSORD,0.120,0.060,-0.120
$GPRMC,102922.000,A,2513.6964,N,12130.8587,E,24.08,144.11,260519,,,A*59
$GPGGA,102922.000,2513.6964,N,12130.8587,E,1,12,1.2,205.7,M,16.7,M,,0000*5D
$GPGSA,A,3,17,19,06,09,42,195,193,28,50,02,05,12,2.2,1.2,1.9*33
$GPGSV,4,1,16,02,33,307,27,04,40,116,38,05,29,233,28,06,51,359,33*7E
$GPGSV,4,2,16,09,39,090,31,12,22,307,24,17,61,109,33,19,74,063,41*73
$GPGSV,4,3,16,23,18,055,22,28,14,176,19,40,13,260,,42,51,134,37*74
$GPGSV,4,4,16,50,51,134,38,193,72,092,35,194,13,173,21,195,71,121,38*4B
$GSENSORD,0.120,0.060,-0.060
$GPRMC,102923.000,A,2513.6905,N,12130.8620,E,23.97,152.12,260519,,,A*54
$GPGGA,102923.000,2513.6905,N,12130.8620,E,1,11,1.2,206.4,M,16.7,M,,0000*56
$GPGSA,A,3,17,19,06,09,42,195,193,28,50,02,05,,2.2,1.2,1.9*30
$GPGSV,4,1,16,02,33,307,25,04,40,116,42,05,29,233,27,06,51,359,32*7F
$GPGSV,4,2,16,09,39,090,27,12,22,307,,17,61,109,36,19,74,063,39*78
$GPGSV,4,3,16,23,18,055,21,28,14,176,20,40,13,260,,42,51,134,37*7D
$GPGSV,4,4,16,50,51,134,36,193,72,092,34,194,13,173,20,195,71,121,35*48
$GSENSORD,0.000,0.000,0.000
$GPRMC,102924.000,A,2513.6844,N,12130.8652,E,23.93,155.84,260519,,,A*5E
$GPGGA,102924.000,2513.6844,N,12130.8652,E,1,11,1.2,207.3,M,16.7,M,,0000*56
$GPGSA,A,3,17,19,06,09,42,195,193,28,50,02,05,,2.2,1.2,1.9*30
$GPGSV,4,1,16,02,33,307,25,04,40,116,42,05,29,233,35,06,51,359,25*7A
$GPGSV,4,2,16,09,39,090,38,12,22,307,20,17,61,109,38,19,74,063,41*75
$GPGSV,4,3,16,23,18,055,24,28,14,176,20,40,13,260,,42,51,134,37*78
$GPGSV,4,4,16,50,51,134,38,193,72,092,36,194,13,173,24,195,71,121,37*42
$GSENSORD,0.120,0.120,-0.120
$GPRMC,102925.000,A,2513.6781,N,12130.8682,E,24.74,159.42,260519,,,A*5C
$GPGGA,102925.000,2513.6781,N,12130.8682,E,1,12,0.9,208.0,M,16.7,M,,0000*59
$GPGSA,A,3,17,19,06,09,42,195,193,28,50,02,23,05,1.5,0.9,1.2*34
$GPGSV,4,1,16,02,33,307,31,04,40,116,42,05,29,233,28,06,51,359,26*70
$GPGSV,4,2,16,09,39,090,39,12,22,306,22,17,61,109,40,19,74,063,42*7B
$GPGSV,4,3,16,23,18,055,28,28,14,176,21,40,13,260,,42,51,134,38*7A
$GPGSV,4,4,16,50,51,134,38,193,72,092,36,194,13,173,23,195,71,121,39*4B
$GSENSORD,0.060,0.120,-0.120
$GPRMC,102926.000,A,2513.6715,N,12130.8709,E,25.61,159.73,260519,,,A*57
$GPGGA,102926.000,2513.6715,N,12130.8709,E,1,12,0.8,208.9,M,16.7,M,,0000*5D
$GPGSA,A,3,17,19,06,09,42,195,193,28,50,02,23,05,1.4,0.8,1.2*34
$GPGSV,4,1,16,02,33,307,31,04,40,116,41,05,29,233,28,06,51,359,32*76
$GPGSV,4,2,16,09,39,090,36,12,22,306,22,17,61,109,40,19,74,063,42*74
$GPGSV,4,3,16,23,18,055,28,28,14,176,22,40,13,260,,42,51,134,39*78
$GPGSV,4,4,16,50,51,134,38,193,72,092,37,194,13,173,21,195,71,121,39*48
$GSENSORD,-0.120,0.180,0.000
$GPRMC,102927.000,A,2513.6646,N,12130.8734,E,26.12,160.72,260519,,,A*53
$GPGGA,102927.000,2513.6646,N,12130.8734,E,1,12,0.8,209.6,M,16.7,M,,0000*5B
$GPGSA,A,3,17,19,06,09,42,195,193,28,50,02,23,194,1.3,0.8,1.1*09
$GPGSV,4,1,16,02,33,307,31,04,40,116,40,05,29,233,26,06,51,359,32*79
$GPGSV,4,2,16,09,39,090,33,12,22,306,20,17,61,109,40,19,74,063,42*73
$GPGSV,4,3,16,23,18,055,28,28,14,176,21,40,13,260,,42,51,134,38*7A
$GPGSV,4,4,16,50,51,134,38,193,72,092,38,194,13,173,20,195,71,121,39*46
$GSENSORD,0.060,0.120,-0.120
$GPRMC,102928.000,A,2513.6577,N,12130.8758,E,25.91,161.24,260519,,,A*5D
$GPGGA,102928.000,2513.6577,N,12130.8758,E,1,12,0.8,210.6,M,16.7,M,,0000*57
$GPGSA,A,3,17,19,06,09,42,195,193,28,50,02,23,194,1.4,0.8,1.1*0E
$GPGSV,4,1,16,02,33,307,25,04,40,116,42,05,29,233,27,06,51,359,30*7D
$GPGSV,4,2,16,09,39,090,41,12,22,306,24,17,61,109,40,19,74,063,42*72
$GPGSV,4,3,16,23,18,055,29,28,14,176,19,40,13,260,,42,51,134,33*7B
$GPGSV,4,4,16,50,51,134,35,193,72,092,40,194,13,173,19,195,71,121,37*40
$GSENSORD,0.000,0.000,0.000
$GPRMC,102929.000,A,2513.6510,N,12130.8784,E,25.18,160.04,260519,,,A*5E
$GPGGA,102929.000,2513.6510,N,12130.8784,E,1,12,0.8,211.4,M,16.7,M,,0000*55
$GPGSA,A,3,17,19,06,09,42,195,193,28,50,02,23,194,1.4,0.8,1.1*0E
$GPGSV,4,1,16,02,33,307,25,04,40,116,37,05,29,233,25,06,51,359,26*7A
$GPGSV,4,2,16,09,39,090,38,12,22,306,23,17,61,109,38,19,74,063,44*72
$GPGSV,4,3,16,23,18,055,30,28,14,176,19,40,13,260,,42,51,134,37*77
$GPGSV,4,4,16,50,51,134,37,193,72,092,39,194,13,173,18,195,71,121,38*42
$GSENSORD,0.180,0.180,-0.120
$GPRMC,102930.000,A,2513.6445,N,12130.8809,E,24.96,160.71,260519,,,A*58
$GPGGA,102930.000,2513.6445,N,12130.8809,E,1,12,0.8,212.0,M,16.7,M,,0000*51
$GPGSA,A,3,17,19,06,09,42,195,193,28,50,02,23,194,1.4,0.8,1.1*0E
$GPGSV,4,1,16,02,33,307,23,04,40,116,34,05,29,233,23,06,51,359,28*77
$GPGSV,4,2,16,09,39,090,36,12,22,306,,17,61,110,40,19,74,063,43*7D
$GPGSV,4,3,16,23,18,055,30,28,14,176,18,40,13,260,,42,51,134,34*75
$GPGSV,4,4,16,50,51,134,34,193,72,092,39,194,13,173,18,195,71,121,39*40
$GSENSORD,-0.060,0.180,-0.120
$GPRMC,102931.000,A,2513.6383,N,12130.8838,E,24.43,156.43,260519,,,A*5A
$GPGGA,102931.000,2513.6383,N,12130.8838,E,1,12,0.8,212.8,M,16.7,M,,0000*57
$GPGSA,A,3,17,19,06,09,42,195,193,28,50,02,23,194,1.4,0.8,1.1*0E
$GPGSV,4,1,16,02,33,307,29,04,40,116,43,05,29,233,22,06,51,359,25*71
$GPGSV,4,2,16,09,39,090,33,12,22,306,,17,61,110,42,19,74,063,42*7B
$GPGSV,4,3,16,23,18,055,25,28,14,176,19,40,13,260,,42,51,134,38*7C
$GPGSV,4,4,16,50,51,134,37,193,72,092,37,194,13,173,19,195,71,121,39*4C
$GSENSORD,0.120,0.000,0.000
$GPRMC,102932.000,A,2513.6319,N,12130.8869,E,25.07,156.33,260519,,,A*58
$GPGGA,102932.000,2513.6319,N,12130.8869,E,1,12,0.8,214.0,M,16.7,M,,0000*5D
$GPGSA,A,3,17,19,06,09,42,195,193,28,50,02,23,194,1.4,0.8,1.1*0E
$GPGSV,4,1,16,02,33,307,28,04,40,116,45,05,29,233,22,06,51,359,26*75
$GPGSV,4,2,16,09,39,090,35,12,22,306,20,17,61,110,40,19,74,065,43*7A
$GPGSV,4,3,16,23,18,055,31,28,14,176,19,40,13,260,,42,51,134,36*77
$GPGSV,4,4,16,50,51,134,38,193,72,092,39,194,13,173,19,195,71,121,37*43
$GSENSORD,0.120,0.180,-0.060
$GPRMC,102933.000,A,2513.6257,N,12130.8902,E,25.10,153.98,260519,,,A*5C
$GPGGA,102933.000,2513.6257,N,12130.8902,E,1,12,0.9,214.2,M,16.7,M,,0000*58
$GPGSA,A,3,17,19,06,09,42,195,193,28,50,02,23,05,1.5,0.9,1.2*34
$GPGSV,4,1,16,02,33,307,25,04,40,116,43,05,29,233,22,06,51,359,25*7D
$GPGSV,4,2,16,09,39,090,37,12,22,306,18,17,61,110,36,19,74,065,42*73
$GPGSV,4,3,16,23,18,055,27,28,14,176,19,40,13,260,,41,38,242,*7B
$GPGSV,4,4,16,42,51,134,36,50,51,134,35,193,72,092,38,195,71,121,39*73
$GSENSORD,0.060,0.180,-0.060
$GPRMC,102934.000,A,2513.6196,N,12130.8939,E,25.09,150.91,260519,,,A*5F
$GPGGA,102934.000,2513.6196,N,12130.8939,E,1,12,0.9,214.5,M,16.7,M,,0000*5E
$GPGSA,A,3,17,19,06,09,42,195,193,28,50,02,23,05,1.5,0.9,1.2*34
$GPGSV,4,1,16,02,33,307,24,04,40,116,45,05,29,233,24,06,51,359,24*7D
$GPGSV,4,2,16,09,39,090,39,12,22,306,,17,61,110,36,19,74,065,41*77
$GPGSV,4,3,16,23,18,055,26,28,14,176,19,40,13,260,,41,38,242,*7A
$GPGSV,4,4,16,42,51,134,33,50,51,134,34,193,72,092,39,195,71,121,39*76
$GSENSORD,0.000,0.000,-0.120
$GPRMC,102935.000,A,2513.6135,N,12130.8979,E,25.69,148.99,260519,,,A*54
$GPGGA,102935.000,2513.6135,N,12130.8979,E,1,12,1.1,214.3,M,16.7,M,,0000*5D
$GPGSA,A,3,17,19,06,09,42,195,193,28,50,02,23,05,2.0,1.1,1.6*3F
$GPGSV,4,1,16,02,33,307,23,04,40,116,43,05,29,233,24,06,51,359,24*7C
$GPGSV,4,2,16,09,39,090,39,12,22,306,24,17,61,110,36,19,74,065,43*73
$GPGSV,4,3,16,23,18,055,30,28,14,176,19,40,13,260,,41,38,242,*7D
$GPGSV,4,4,16,42,51,134,34,50,51,134,35,193,72,092,42,195,71,121,41*73
$GSENSORD,-0.120,0.120,-0.120
$GPRMC,102936.000,A,2513.6072,N,12130.9020,E,26.15,148.80,260519,,,A*51
$GPGGA,102936.000,2513.6072,N,12130.9020,E,1,11,1.4,215.0,M,16.7,M,,0000*5C
$GPGSA,A,3,17,19,06,09,42,195,193,28,50,02,05,,2.8,1.4,2.4*32
$GPGSV,4,1,16,02,33,307,32,04,40,116,45,05,29,233,24,06,51,359,32*7D
$GPGSV,4,2,16,09,39,090,36,12,22,306,23,17,61,110,36,19,74,065,41*79
$GPGSV,4,3,16,23,18,054,,28,14,176,18,40,13,260,,41,38,242,*7E
$GPGSV,4,4,16,42,51,134,35,50,51,134,36,193,72,092,39,195,71,121,41*7D
$GSENSORD,0.000,0.000,0.000
$GPRMC,102937.000,A,2513.6010,N,12130.9061,E,25.74,149.41,260519,,,A*59
$GPGGA,102937.000,2513.6010,N,12130.9061,E,1,12,1.0,215.3,M,16.7,M,,0000*58
$GPGSA,A,3,17,19,06,09,42,195,193,28,50,02,23,05,1.8,1.0,1.5*36
$GPGSV,4,1,16,02,33,307,32,04,40,116,45,05,29,233,23,06,51,359,32*7A
$GPGSV,4,2,16,09,39,090,36,12,22,306,21,17,61,110,34,19,74,065,41*79
$GPGSV,4,3,16,23,18,054,33,28,14,176,19,40,13,260,,41,38,242,*7F
$GPGSV,4,4,16,42,51,134,36,50,51,134,36,193,72,092,37,195,71,121,40*71
$GSENSORD,0.060,0.180,-0.120
$GPRMC,102938.000,A,2513.5948,N,12130.9098,E,25.33,151.31,260519,,,A*5A
$GPGGA,102938.000,2513.5948,N,12130.9098,E,1,12,0.8,214.7,M,16.7,M,,0000*5A
$GPGSA,A,3,17,19,06,09,42,195,193,28,50,02,23,05,1.4,0.8,1.2*34
$GPGSV,4,1,16,02,33,307,27,04,40,116,44,05,29,233,23,06,51,359,28*74
$GPGSV,4,2,16,09,39,090,38,12,22,306,20,17,61,110,37,19,74,065,41*75
$GPGSV,4,3,16,23,18,054,29,28,14,176,20,40,13,260,,41,38,242,*7E
$GPGSV,4,4,16,42,51,134,36,50,51,134,36,193,72,092,37,195,71,121,39*7F
$GSENSORD,0.060,0.060,0.000
$GPRMC,102939.000,A,2513.5886,N,12130.9137,E,25.57,150.72,260519,,,A*58
$GPGGA,102939.000,2513.5886,N,12130.9137,E,1,12,0.8,215.3,M,16.7,M,,0000*59
$GPGSA,A,3,17,19,06,09,42,195,193,28,50,02,23,194,1.4,0.8,1.2*0D
$GPGSV,4,1,16,02,33,307,27,04,40,116,45,05,29,233,24,06,51,359,28*72
$GPGSV,4,2,16,09,39,090,40,12,22,306,21,17,61,110,37,19,74,065,42*78
$GPGSV,4,3,16,23,18,054,32,28,14,176,38,40,13,260,,42,51,134,35*75
$GPGSV,4,4,16,50,51,134,35,193,72,092,41,194,13,173,41,195,71,121,40*4C
$GSENSORD,-0.120,0.120,-0.060
$GPRMC,102940.000,A,2513.5829,N,12130.9186,E,25.49,149.58,260519,,,A*56
$GPGGA,102940.000,2513.5829,N,12130.9186,E,1,12,0.8,218.6,M,16.7,M,,0000*50
$GPGSA,A,3,17,19,06,09,42,195,193,28,50,02,23,194,1.3,0.8,1.1*09
$GPGSV,4,1,16,02,33,307,27,04,40,116,45,05,29,233,39,06,51,359,28*7E
$GPGSV,4,2,16,09,39,090,39,12,22,306,20,17,61,110,34,19,74,065,41*77
$GPGSV,4,3,16,23,18,054,35,28,14,176,39,40,13,260,,42,51,134,35*73
$GPGSV,4,4,16,50,51,134,35,193,72,092,40,194,13,173,40,195,71,121,40*4C
$GSENSORD,-0.180,0.120,-0.120
$GPRMC,102941.000,A,2513.5768,N,12130.9229,E,25.47,149.13,260519,,,A*5A
$GPGGA,102941.000,2513.5768,N,12130.9229,E,1,12,0.8,220.0,M,16.7,M,,0000*50
$GPGSA,A,3,17,19,06,09,42,195,193,28,50,02,23,194,1.3,0.8,1.1*09
$GPGSV,4,1,16,02,33,307,29,04,40,116,46,05,29,233,39,06,51,359,28*73
$GPGSV,4,2,16,09,39,090,38,12,22,306,29,17,61,110,34,19,74,065,42*7C
$GPGSV,4,3,16,23,18,054,35,28,14,175,40,41,38,242,35,42,51,134,35*70
$GPGSV,4,4,16,50,51,134,36,193,72,092,40,194,13,173,40,195,71,121,40*4F
$GSENSORD,-0.120,0.120,-0.060
$GPRMC,102942.000,A,2513.5709,N,12130.9271,E,25.27,148.67,260519,,,A*57
$GPGGA,102942.000,2513.5709,N,12130.9271,E,1,12,0.8,221.5,M,16.7,M,,0000*5D
$GPGSA,A,3,17,19,06,09,42,195,193,28,50,02,23,194,1.3,0.8,1.1*09
$GPGSV,4,1,16,02,33,307,30,04,40,116,46,05,29,233,39,06,51,359,30*72
$GPGSV,4,2,16,09,39,090,39,12,22,306,29,17,61,110,36,19,74,065,42*7F
$GPGSV,4,3,16,23,18,054,35,28,14,175,38,41,38,242,38,42,51,134,36*71
$GPGSV,4,4,16,50,51,134,36,193,72,092,41,194,13,173,41,195,71,121,41*4E
$GSENSORD,0.000,0.000,-0.120
$GPRMC,102943.000,A,2513.5649,N,12130.9311,E,25.16,148.89,260519,,,A*56
$GPGGA,102943.000,2513.5649,N,12130.9311,E,1,12,0.8,222.6,M,16.7,M,,0000*5E
$GPGSA,A,3,17,19,06,09,42,195,193,28,50,02,23,194,1.3,0.8,1.1*09
$GPGSV,4,1,16,02,33,307,30,04,40,116,46,05,29,233,39,06,51,359,30*72
$GPGSV,4,2,16,09,39,090,38,12,22,306,28,17,61,110,37,19,74,065,42*7E
$GPGSV,4,3,16,23,18,054,35,28,14,175,38,41,38,242,38,42,51,134,35*72
$GPGSV,4,4,16,50,51,134,36,193,72,092,40,194,13,173,38,195,71,121,40*40
$GSENSORD,0.000,0.060,-0.120
$GPRMC,102944.000,A,2513.5589,N,12130.9351,E,25.28,149.60,260519,,,A*51
$GPGGA,102944.000,2513.5589,N,12130.9351,E,1,12,0.8,223.6,M,16.7,M,,0000*53
$GPGSA,A,3,17,19,06,09,42,195,193,28,50,02,23,194,1.3,0.8,1.1*09
$GPGSV,4,1,16,02,33,307,31,04,40,116,45,05,29,233,39,06,51,359,30*70
$GPGSV,4,2,16,09,39,090,38,12,22,306,28,17,61,110,35,19,74,065,42*7C
$GPGSV,4,3,16,23,18,054,25,28,14,175,39,41,38,242,37,42,51,134,36*7E
$GPGSV,4,4,16,50,51,134,36,193,72,092,39,194,13,173,43,195,71,121,40*42
$GSENSORD,-0.060,0.000,0.000
$GPRMC,102945.000,A,2513.5528,N,12130.9390,E,25.32,150.71,260519,,,A*55
$GPGGA,102945.000,2513.5528,N,12130.9390,E,1,12,0.8,224.5,M,16.7,M,,0000*50
$GPGSA,A,3,17,19,06,09,42,195,193,28,50,02,23,194,1.3,0.8,1.1*09
$GPGSV,4,1,16,02,33,307,31,04,40,116,45,05,29,233,39,06,51,359,28*79
$GPGSV,4,2,16,09,39,090,38,12,22,306,30,17,61,110,36,19,74,065,42*76
$GPGSV,4,3,16,23,18,054,31,28,14,175,36,41,38,242,38,42,51,134,36*7B
$GPGSV,4,4,16,50,51,134,36,193,72,092,39,194,13,173,36,195,71,121,41*41
$GSENSORD,0.060,0.120,-0.120
$GPRMC,102946.000,A,2513.5466,N,12130.9427,E,25.40,152.37,260519,,,A*53
$GPGGA,102946.000,2513.5466,N,12130.9427,E,1,12,0.8,225.1,M,16.7,M,,0000*56
$GPGSA,A,3,17,19,06,09,42,195,193,28,50,02,23,194,1.3,0.8,1.1*09
$GPGSV,4,1,16,02,33,307,32,04,40,116,46,05,29,233,39,06,51,359,26*77
$GPGSV,4,2,16,09,39,090,39,12,22,306,31,17,61,110,38,19,74,065,43*79
$GPGSV,4,3,16,23,18,054,35,28,14,175,29,41,38,242,36,42,51,134,35*7C
$GPGSV,4,4,16,50,51,134,35,193,72,092,39,194,13,173,27,195,71,121,41*42
$GSENSORD,-0.120,0.120,-0.120
$GPRMC,102947.000,A,2513.5402,N,12130.9462,E,25.68,153.69,260519,,,A*51
$GPGGA,102947.000,2513.5402,N,12130.9462,E,1,12,0.8,225.5,M,16.7,M,,0000*50
$GPGSA,A,3,17,19,06,09,42,195,193,28,50,02,23,194,1.3,0.8,1.1*09
$GPGSV,4,1,16,02,33,307,29,04,40,116,45,05,29,233,29,06,51,359,26*7F
$GPGSV,4,2,16,09,39,090,39,12,22,306,31,17,61,110,37,19,74,065,42*77
$GPGSV,4,3,16,23,18,054,35,28,14,175,27,41,38,242,29,42,51,134,34*7D
$GPGSV,4,4,16,50,51,134,35,193,72,092,39,194,13,173,26,195,71,121,41*43
$GSENSORD,0.000,0.000,0.000
$GPRMC,102948.000,A,2513.5336,N,12130.9496,E,26.36,155.40,260519,,,A*50
$GPGGA,102948.000,2513.5336,N,12130.9496,E,1,12,0.8,226.1,M,16.7,M,,0000*53
$GPGSA,A,3,17,19,06,09,42,195,193,28,50,02,23,194,1.3,0.8,1.1*09
$GPGSV,4,1,16,02,33,307,28,04,40,116,46,05,29,233,26,06,51,359,31*74
$GPGSV,4,2,16,09,39,090,42,12,22,306,30,17,61,110,37,19,74,065,41*79
$GPGSV,4,3,16,23,18,054,35,28,14,175,38,41,38,242,27,42,51,134,30*79
$GPGSV,4,4,16,50,51,134,31,193,72,092,39,194,13,173,42,195,71,121,40*44
$GSENSORD,0.060,0.120,-0.120
$GPRMC,102949.000,A,2513.5269,N,12130.9527,E,26.29,157.81,260519,,,A*50
$GPGGA,102949.000,2513.5269,N,12130.9527,E,1,12,0.8,226.4,M,16.7,M,,0000*57
$GPGSA,A,3,17,19,06,09,42,195,193,28,50,02,23,194,1.3,0.8,1.1*09
$GPGSV,4,1,16,02,33,307,29,04,40,116,38,05,29,233,38,06,51,359,32*70
$GPGSV,4,2,16,09,39,090,41,12,22,306,23,17,61,110,35,19,74,065,39*75
$GPGSV,4,3,16,23,18,054,35,28,14,175,34,41,38,242,37,42,51,134,31*75
$GPGSV,4,4,16,50,51,134,32,193,72,092,40,194,13,173,35,195,71,121,42*4B
$GSENSORD,-0.060,-0.060,-0.060
$GPRMC,102950.000,A,2513.5200,N,12130.9556,E,26.61,159.82,260519,,,A*50
$GPGGA,102950.000,2513.5200,N,12130.9556,E,1,12,0.8,226.7,M,16.7,M,,0000*55
$GPGSA,A,3,17,19,06,09,42,195,193,28,50,02,23,194,1.3,0.8,1.1*09
$GPGSV,4,1,16,02,33,307,31,04,40,116,45,05,29,233,39,06,51,359,33*73
$GPGSV,4,2,16,09,39,090,32,12,22,306,22,17,61,110,35,19,74,065,39*70
$GPGSV,4,3,16,23,18,054,25,28,14,175,28,41,38,242,37,42,51,134,30*78
$GPGSV,4,4,16,50,51,134,31,193,72,092,41,194,13,173,34,195,71,121,43*49
$GSENSORD,-0.120,0.000,0.000
$GPRMC,102951.000,A,2513.5129,N,12130.9582,E,26.85,161.89,260519,,,A*5A
$GPGGA,102951.000,2513.5129,N,12130.9582,E,1,12,1.1,227.0,M,16.7,M,,0000*5B
$GPGSA,A,3,17,19,06,09,42,195,193,28,50,02,194,05,1.9,1.1,1.6*08
$GPGSV,4,1,16,02,33,307,31,04,40,116,43,05,29,233,40,06,51,359,34*7C
$GPGSV,4,2,16,09,39,090,43,12,22,306,21,17,61,110,35,19,74,065,37*7B
$GPGSV,4,3,16,23,18,054,,28,14,175,35,41,38,242,39,42,51,134,30*7D
$GPGSV,4,4,16,50,51,134,30,193,72,092,40,194,13,173,31,195,71,121,43*4C
$GSENSORD,-0.120,0.060,-0.060
$GPRMC,102952.000,A,2513.5058,N,12130.9605,E,26.94,163.66,260519,,,A*51
$GPGGA,102952.000,2513.5058,N,12130.9605,E,1,12,1.1,227.3,M,16.7,M,,0000*50
$GPGSA,A,3,17,19,06,09,42,195,193,28,50,02,194,05,1.9,1.1,1.6*08
$GPGSV,4,1,16,02,33,307,31,04,40,116,43,05,29,233,25,06,51,359,37*7C
$GPGSV,4,2,16,09,39,090,43,12,22,306,23,17,61,110,36,19,74,065,35*78
$GPGSV,4,3,16,23,18,054,27,28,14,175,37,41,38,242,29,42,51,134,29*73
$GPGSV,4,4,16,50,51,134,29,193,72,092,41,194,13,173,36,195,71,121,43*42
$GSENSORD,0.000,0.000,0.000
$GPRMC,102953.000,A,2513.4986,N,12130.9624,E,26.74,168.60,260519,,,A*5B
$GPGGA,102953.000,2513.4986,N,12130.9624,E,1,12,1.1,227.6,M,16.7,M,,0000*5C
$GPGSA,A,3,17,19,06,09,42,195,193,28,50,02,194,05,1.9,1.1,1.6*08
$GPGSV,4,1,16,02,33,307,23,04,40,116,24,05,29,233,41,06,51,359,37*7C
$GPGSV,4,2,16,09,39,090,19,12,22,306,21,17,61,110,33,19,74,065,34*71
$GPGSV,4,3,16,23,18,054,26,28,14,175,37,41,38,242,38,42,51,134,29*72
$GPGSV,4,4,16,50,51,134,29,193,72,092,41,194,13,173,34,195,71,121,43*40
$GSENSORD,-0.120,0.060,-0.120
$GPRMC,102954.000,A,2513.4913,N,12130.9640,E,26.98,170.36,260519,,,A*5A
$GPGGA,102954.000,2513.4913,N,12130.9640,E,1,12,1.0,227.6,M,16.7,M,,0000*54
$GPGSA,A,3,17,19,06,09,42,195,193,28,50,02,23,194,1.6,1.0,1.1*05
$GPGSV,4,1,16,02,33,307,22,04,40,116,31,05,29,233,42,06,51,359,38*75
$GPGSV,4,2,16,09,39,090,31,12,22,306,22,17,61,110,23,19,74,065,34*79
$GPGSV,4,3,16,23,18,054,23,28,14,175,41,41,38,242,41,42,51,134,29*78
$GPGSV,4,4,16,50,51,134,29,193,72,092,39,194,13,173,37,195,71,121,39*41
$GSENSORD,-0.120,0.120,-0.060
$GPRMC,102955.000,A,2513.4840,N,12130.9653,E,27.03,171.53,260519,,,A*5F
$GPGGA,102955.000,2513.4840,N,12130.9653,E,1,11,1.3,227.6,M,16.7,M,,0000*50
$GPGSA,A,3,17,19,06,09,42,195,193,28,50,194,05,,2.2,1.3,1.8*0E
$GPGSV,4,1,16,02,33,307,,04,40,116,39,05,29,233,44,06,51,359,39*7A
$GPGSV,4,2,16,09,39,090,26,12,22,306,,17,61,110,24,19,74,065,35*79
$GPGSV,4,3,16,23,18,054,18,28,14,175,39,41,38,242,41,42,51,134,29*7F
$GPGSV,4,4,16,50,51,134,29,193,72,092,40,194,13,173,36,195,71,121,39*4E
$GSENSORD,0.000,0.180,-0.180
$GPRMC,102956.000,A,2513.4767,N,12130.9666,E,27.02,171.16,260519,,,A*50
$GPGGA,102956.000,2513.4767,N,12130.9666,E,1,12,1.1,227.3,M,16.7,M,,0000*5B
$GPGSA,A,3,17,19,06,09,42,195,193,28,50,194,05,12,1.9,1.1,1.6*09
$GPGSV,4,1,16,02,33,307,26,04,40,116,39,05,29,233,42,06,51,359,39*78
$GPGSV,4,2,16,09,39,090,37,12,22,306,34,17,61,110,21,19,74,065,27*78
$GPGSV,4,3,16,23,18,054,,28,14,175,39,41,38,242,40,42,51,134,27*79
$GPGSV,4,4,16,50,51,134,28,193,72,092,40,194,13,173,36,195,71,121,42*43
$GSENSORD,-0.120,0.120,-0.060
$GPRMC,102957.000,A,2513.4693,N,12130.9680,E,26.81,169.69,260519,,,A*58
$GPGGA,102957.000,2513.4693,N,12130.9680,E,1,11,1.1,227.0,M,16.7,M,,0000*58
$GPGSA,A,3,17,19,06,09,195,193,28,02,194,05,12,,1.9,1.1,1.6*08
$GPGSV,4,1,16,02,33,307,26,04,40,116,40,05,29,233,40,06,51,359,39*74
$GPGSV,4,2,16,09,39,090,39,12,22,306,33,17,61,110,24,19,74,065,32*70
$GPGSV,4,3,16,23,18,054,20,28,14,175,39,40,13,260,,41,38,242,39*76
$GPGSV,4,4,16,42,51,134,,193,72,092,40,194,13,173,34,195,71,121,42*48
$GSENSORD,-0.060,0.120,-0.060
$GPRMC,102958.000,A,2513.4621,N,12130.9698,E,26.77,166.88,260519,,,A*5E
$GPGGA,102958.000,2513.4621,N,12130.9698,E,1,11,1.1,226.3,M,16.7,M,,0000*55
$GPGSA,A,3,17,19,06,09,195,193,28,02,194,05,12,,1.9,1.1,1.6*08
$GPGSV,4,1,16,02,33,307,27,04,40,116,40,05,29,233,38,06,51,359,41*75
$GPGSV,4,2,16,09,39,090,39,12,22,306,21,17,61,110,26,19,74,065,33*70
$GPGSV,4,3,16,23,18,054,18,28,14,175,39,40,13,260,,41,38,242,39*7D
$GPGSV,4,4,16,42,51,134,,193,72,092,40,194,13,173,39,195,71,121,41*46
$GSENSORD,-0.180,0.180,0.000
$GPRMC,102959.000,A,2513.4550,N,12130.9719,E,26.58,164.33,260519,,,A*5D
$GPGGA,102959.000,2513.4550,N,12130.9719,E,1,11,1.1,226.1,M,16.7,M,,0000*5B
$GPGSA,A,3,17,19,06,09,195,193,28,02,194,05,12,,1.9,1.1,1.6*08
$GPGSV,4,1,16,02,33,307,29,04,40,116,42,05,29,233,37,06,51,359,37*77
$GPGSV,4,2,16,09,39,090,41,12,22,306,24,17,61,110,33,19,74,065,33*7E
$GPGSV,4,3,16,23,18,054,15,28,14,175,40,40,13,260,,41,38,242,39*7E
$GPGSV,4,4,16,42,51,134,,193,72,092,40,194,13,173,42,195,71,121,44*4F
$GSENSORD,-0.250,0.180,-0.120
$GPRMC,103000.000,A,2513.4482,N,12130.9744,E,25.64,160.52,260519,,,A*50
$GPGGA,103000.000,2513.4482,N,12130.9744,E,1,11,1.1,225.7,M,16.7,M,,0000*5C
$GPGSA,A,3,17,19,06,09,195,193,28,02,194,05,12,,1.9,1.1,1.6*08
$GPGSV,4,1,16,02,33,307,28,04,40,116,44,05,29,233,37,06,51,359,36*71
$GPGSV,4,2,16,09,39,090,43,12,22,306,24,17,61,110,35,19,74,065,32*7B
$GPGSV,4,3,16,23,18,054,,28,14,175,41,40,13,260,,41,38,242,39*7B
$GPGSV,4,4,16,42,51,134,,193,72,092,40,194,13,173,39,195,71,121,44*43
$GSENSORD,0.000,0.250,0.000
$GPRMC,103001.000,A,2513.4419,N,12130.9770,E,23.52,157.71,260519,,,A*52
$GPGGA,103001.000,2513.4419,N,12130.9770,E,1,11,1.1,225.5,M,16.7,M,,0000*5A
$GPGSA,A,3,17,19,06,09,195,193,28,02,194,05,12,,1.9,1.1,1.6*08
$GPGSV,4,1,16,02,33,307,33,04,40,116,42,05,29,233,37,06,51,359,34*7F
$GPGSV,4,2,16,09,39,090,41,12,22,306,24,17,61,110,37,19,74,065,36*7F
$GPGSV,4,3,16,23,18,054,25,28,14,175,41,40,13,260,,41,38,242,38*7D
$GPGSV,4,4,16,42,51,134,,193,72,092,41,194,13,173,39,195,71,121,44*42
$GSENSORD,-0.250,0.060,-0.060
$GPRMC,103002.000,A,2513.4362,N,12130.9793,E,21.56,159.79,260519,,,A*57
$GPGGA,103002.000,2513.4362,N,12130.9793,E,1,12,0.8,225.4,M,16.7,M,,0000*55
$GPGSA,A,3,17,19,06,09,195,193,28,02,23,194,05,12,1.4,0.8,1.1*0B
$GPGSV,4,1,16,02,33,307,28,04,40,116,44,05,29,233,38,06,51,359,34*7C
$GPGSV,4,2,16,09,39,090,43,12,22,306,24,17,61,110,35,19,74,065,36*7F
$GPGSV,4,3,16,23,18,054,30,28,14,175,41,40,13,260,,41,38,242,36*77
$GPGSV,4,4,16,42,51,134,,193,72,092,40,194,13,173,38,195,71,121,44*42
$GSENSORD,-0.120,-0.180,-0.120
$GPRMC,103003.000,A,2513.4306,N,12130.9809,E,20.44,168.66,260519,,,A*56
$GPGGA,103003.000,2513.4306,N,12130.9809,E,1,12,0.8,225.0,M,16.7,M,,0000*5E
$GPGSA,A,3,17,19,06,09,195,193,28,02,23,194,05,12,1.4,0.8,1.1*0B
$GPGSV,4,1,16,02,33,307,29,04,40,116,40,05,29,233,42,06,51,359,37*77
$GPGSV,4,2,16,09,39,090,42,12,22,306,25,17,61,110,31,19,74,065,31*7C
$GPGSV,4,3,16,23,18,054,23,28,14,175,35,40,13,260,,41,38,242,39*79
$GPGSV,4,4,16,42,51,134,,193,72,092,40,194,13,173,33,195,71,121,41*4C
$GSENSORD,-0.180,0.000,0.000
$GPRMC,103004.000,A,2513.4249,N,12130.9812,E,20.09,181.02,260519,,,A*5D
$GPGGA,103004.000,2513.4249,N,12130.9812,E,1,12,0.8,224.8,M,16.7,M,,0000*50
$GPGSA,A,3,17,19,06,09,195,193,28,02,23,194,05,12,1.4,0.8,1.1*0B
$GPGSV,4,1,16,02,33,308,29,04,40,116,41,05,29,233,40,06,51,359,43*78
$GPGSV,4,2,16,09,39,090,35,12,22,306,31,17,61,110,27,19,74,065,29*77
$GPGSV,4,3,16,23,18,054,24,28,14,175,31,40,13,260,,41,38,242,40*74
$GPGSV,4,4,16,42,51,134,,193,72,092,39,194,13,173,26,195,71,121,40*47
$GSENSORD,-0.060,-0.180,-0.060
$GPRMC,103005.000,A,2513.4194,N,12130.9802,E,20.09,194.41,260519,,,A*5D
$GPGGA,103005.000,2513.4194,N,12130.9802,E,1,11,0.8,224.8,M,16.7,M,,0000*50
$GPGSA,A,3,17,19,06,09,195,193,02,23,194,05,12,,1.4,0.8,1.2*02
$GPGSV,4,1,16,02,33,308,27,04,40,116,40,05,29,233,49,06,51,359,41*7C
$GPGSV,4,2,16,09,39,090,38,12,22,306,31,17,61,110,35,19,74,065,37*76
$GPGSV,4,3,16,23,18,054,31,28,14,175,,40,13,260,,41,38,242,37*72
$GPGSV,4,4,16,42,51,134,32,193,72,092,34,194,13,173,25,195,71,121,40*48
$GSENSORD,0.000,-0.120,-0.060
$GPRMC,103006.000,A,2513.4141,N,12130.9778,E,20.12,206.95,260519,,,A*5F
$GPGGA,103006.000,2513.4141,N,12130.9778,E,1,12,0.8,225.0,M,16.7,M,,0000*53
$GPGSA,A,3,17,19,06,09,42,195,193,02,23,194,05,12,1.4,0.8,1.2*04
$GPGSV,4,1,16,02,33,308,35,04,40,116,36,05,29,233,48,06,51,359,37*7E
$GPGSV,4,2,16,09,39,090,34,12,22,306,41,17,61,110,39,19,74,065,36*70
$GPGSV,4,3,16,23,18,054,25,28,14,175,,40,13,260,,41,38,242,38*78
$GPGSV,4,4,16,42,51,134,33,193,72,092,29,194,13,173,23,195,71,121,40*43
$GSENSORD,-0.060,0.000,-0.120
$GPRMC,103007.000,A,2513.4094,N,12130.9745,E,20.16,215.34,260519,,,A*54
$GPGGA,103007.000,2513.4094,N,12130.9745,E,1,12,0.8,225.4,M,16.7,M,,0000*51
$GPGSA,A,3,17,19,06,09,42,195,193,02,23,194,05,12,1.4,0.8,1.2*04
$GPGSV,4,1,16,02,33,308,40,04,40,116,38,05,29,233,48,06,51,359,39*7C
$GPGSV,4,2,16,09,39,090,37,12,22,306,39,17,61,110,41,19,74,065,37*72
$GPGSV,4,3,16,23,18,054,32,28,14,175,10,40,13,260,,41,38,242,35*72
$GPGSV,4,4,16,42,51,134,33,193,72,092,32,194,13,173,19,195,71,121,39*4E
$GSENSORD,0.000,0.060,-0.180
$GPRMC,103008.000,A,2513.4050,N,12130.9709,E,19.83,218.88,260519,,,A*57
$GPGGA,103008.000,2513.4050,N,12130.9709,E,1,12,0.8,226.1,M,16.7,M,,0000*58
$GPGSA,A,3,17,19,06,09,42,195,193,50,02,23,194,05,1.4,0.8,1.2*02
$GPGSV,4,1,16,02,33,308,40,04,40,116,38,05,29,233,49,06,51,359,39*7D
$GPGSV,4,2,16,09,39,090,37,12,22,306,35,17,61,110,40,19,74,065,36*7E
$GPGSV,4,3,16,23,18,054,31,28,14,175,13,41,38,242,33,42,51,134,34*75
$GPGSV,4,4,16,50,51,134,34,193,72,092,32,194,13,173,15,195,71,121,40*48
$GSENSORD,-0.120,0.000,0.000
$GPRMC,103009.000,A,2513.4010,N,12130.9668,E,19.05,224.32,260519,,,A*54
$GPGGA,103009.000,2513.4010,N,12130.9668,E,1,12,0.9,226.8,M,16.7,M,,0000*53
$GPGSA,A,3,17,19,06,09,42,195,193,50,02,23,05,12,1.8,0.9,1.5*37
$GPGSV,4,1,16,02,33,308,37,04,40,116,37,05,29,233,47,06,51,359,36*73
$GPGSV,4,2,16,09,39,090,37,12,22,306,37,17,61,110,40,19,74,065,36*7C
$GPGSV,4,3,16,23,18,054,24,28,14,175,15,41,38,242,43,42,51,134,33*77
$GPGSV,4,4,16,50,51,134,34,193,72,092,31,194,13,173,10,195,71,121,40*4E
$GSENSORD,-0.060,-0.120,-0.120
$GPRMC,103010.000,A,2513.3978,N,12130.9626,E,17.69,233.36,260519,,,A*50
$GPGGA,103010.000,2513.3978,N,12130.9626,E,1,12,0.9,227.5,M,16.7,M,,0000*5D
$GPGSA,A,3,17,19,06,09,42,195,193,50,02,23,05,12,1.8,0.9,1.5*37
$GPGSV,4,1,16,02,33,308,38,04,40,116,36,05,29,233,46,06,51,359,32*78
$GPGSV,4,2,16,09,39,090,24,12,22,306,41,17,61,110,36,19,74,065,36*7E
$GPGSV,4,3,16,23,18,054,26,28,14,175,13,40,13,260,,41,38,242,41*77
$GPGSV,4,4,16,42,51,134,34,50,51,134,35,193,72,092,33,195,71,121,40*74
$GSENSORD,0.060,-0.120,-0.060
$GPRMC,103011.000,A,2513.3958,N,12130.9578,E,16.91,248.87,260519,,,A*5B
$GPGGA,103011.000,2513.3958,N,12130.9578,E,1,12,0.9,228.3,M,16.7,M,,0000*5F
$GPGSA,A,3,17,19,06,09,42,195,193,50,02,23,05,12,1.8,0.9,1.5*37
$GPGSV,4,1,16,02,33,308,40,04,40,116,38,05,29,233,45,06,51,359,32*7A
$GPGSV,4,2,16,09,39,090,35,12,22,306,40,17,61,110,38,19,74,065,40*70
$GPGSV,4,3,16,23,18,054,33,28,14,175,09,40,13,260,,41,38,242,44*7D
$GPGSV,4,4,16,42,51,134,34,50,51,134,34,193,72,092,33,195,71,121,32*70
$GSENSORD,0.120,0.000,-0.120
$GPRMC,103012.000,A,2513.3950,N,12130.9526,E,17.09,265.46,260519,,,A*59
$GPGGA,103012.000,2513.3950,N,12130.9526,E,1,12,0.9,229.1,M,16.7,M,,0000*5C
$GPGSA,A,3,17,19,06,09,42,195,193,50,02,23,05,12,1.8,0.9,1.5*37
$GPGSV,4,1,16,02,33,308,44,04,40,116,26,05,29,233,43,06,51,359,40*72
$GPGSV,4,2,16,09,39,090,35,12,22,306,46,17,61,110,40,19,74,065,38*76
$GPGSV,4,3,16,23,18,054,28,28,14,175,09,40,13,260,,41,38,242,44*77
$GPGSV,4,4,16,42,51,134,36,50,51,134,35,193,72,092,37,195,71,121,32*77
$GSENSORD,0.120,-0.120,-0.120
$GPRMC,103013.000,A,2513.3956,N,12130.9473,E,17.71,281.00,260519,,,A*58
$GPGGA,103013.000,2513.3956,N,12130.9473,E,1,12,0.9,229.9,M,16.7,M,,0000*52
$GPGSA,A,3,17,19,06,09,42,195,193,50,02,23,05,12,1.8,0.9,1.5*37
$GPGSV,4,1,16,02,33,308,43,04,40,116,34,05,29,233,41,06,51,359,43*77
$GPGSV,4,2,16,09,39,090,41,12,22,306,42,17,61,110,19,19,74,065,36*73
$GPGSV,4,3,16,23,18,054,27,28,14,175,,40,13,260,,41,38,242,44*71
$GPGSV,4,4,16,42,51,134,29,50,51,134,29,193,72,092,38,195,71,121,36*7F
$GSENSORD,0.060,-0.060,-0.120
$GPRMC,103014.000,A,2513.3973,N,12130.9421,E,18.58,294.06,260519,,,A*59
$GPGGA,103014.000,2513.3973,N,12130.9421,E,1,12,0.9,230.9,M,16.7,M,,0000*5D
$GPGSA,A,3,17,19,06,09,42,195,193,50,02,23,05,12,1.8,0.9,1.5*37
$GPGSV,4,1,16,02,33,308,46,04,40,116,37,05,29,233,38,06,51,359,45*79
$GPGSV,4,2,16,09,39,090,36,12,22,306,44,17,61,110,36,19,74,065,28*77
$GPGSV,4,3,16,23,18,054,23,28,14,175,,40,13,260,,41,38,242,37*71
$GPGSV,4,4,16,42,51,134,27,50,51,134,27,193,72,092,38,195,71,121,35*7C
$GSENSORD,0.120,0.120,0.000
$GPRMC,103015.000,A,2513.4002,N,12130.9371,E,19.42,306.32,260519,,,A*55
$GPGGA,103015.000,2513.4002,N,12130.9371,E,1,10,1.1,231.6,M,16.7,M,,0000*53
$GPGSA,A,3,17,19,06,09,195,193,02,23,05,12,,,1.9,1.1,1.5*3C
$GPGSV,4,1,15,02,33,308,44,04,40,116,41,05,29,233,23,06,51,359,45*73
$GPGSV,4,2,15,09,39,090,34,12,22,306,42,17,61,110,36,19,74,065,39*70
$GPGSV,4,3,15,23,18,054,31,28,14,175,,40,13,260,,41,38,242,33*75
$GPGSV,4,4,15,42,51,134,,193,72,092,35,195,71,121,38*48
$GSENSORD,0.180,0.120,-0.060
$GPRMC,103016.000,A,2513.4037,N,12130.9324,E,20.38,311.16,260519,,,A*57
$GPGGA,103016.000,2513.4037,N,12130.9324,E,1,10,1.1,232.8,M,16.7,M,,0000*5B
$GPGSA,A,3,17,19,06,09,195,193,02,23,05,12,,,1.9,1.1,1.5*3C
$GPGSV,4,1,15,02,33,308,44,04,40,116,40,05,29,233,22,06,51,359,43*75
$GPGSV,4,2,15,09,39,090,30,12,22,306,43,17,61,110,42,19,74,065,39*76
$GPGSV,4,3,15,23,18,054,39,28,14,175,,40,13,260,,41,38,242,32*7C
$GPGSV,4,4,15,42,51,134,,193,72,092,33,195,71,121,39*4F
$GSENSORD,0.120,0.120,-0.060
$GPRMC,103017.000,A,2513.4077,N,12130.9276,E,20.98,314.73,260519,,,A*58
$GPGGA,103017.000,2513.4077,N,12130.9276,E,1,11,1.0,234.6,M,16.7,M,,0000*50
$GPGSA,A,3,17,19,06,09,195,193,50,02,23,05,12,,1.8,1.0,1.5*39
$GPGSV,4,1,16,02,33,308,45,04,40,116,36,05,29,233,20,06,51,359,41*76
$GPGSV,4,2,16,09,39,090,23,12,22,306,42,17,61,110,44,19,74,065,40*7E
$GPGSV,4,3,16,23,18,054,39,28,14,175,,40,13,260,,41,38,242,35*78
$GPGSV,4,4,16,42,51,134,,50,51,134,36,193,72,092,32,195,71,121,39*7F
$GSENSORD,0.000,0.000,0.000
$GPRMC,103018.000,A,2513.4120,N,12130.9231,E,21.63,318.00,260519,,,A*5A
$GPGGA,103018.000,2513.4120,N,12130.9231,E,1,12,0.9,235.9,M,16.7,M,,0000*5A
$GPGSA,A,3,17,19,06,09,42,195,193,50,02,23,05,12,1.8,0.9,1.5*37
$GPGSV,4,1,16,02,33,308,46,04,40,116,33,05,29,233,19,06,51,359,42*79
$GPGSV,4,2,16,09,39,090,25,12,22,306,39,17,61,110,45,19,74,065,42*77
$GPGSV,4,3,16,23,18,054,39,28,14,175,,40,13,260,,41,38,242,30*7D
$GPGSV,4,4,16,42,51,134,36,50,51,134,36,193,72,092,33,195,71,121,39*7B
$GSENSORD,0.180,0.060,-0.120
$GPRMC,103019.000,A,2513.4167,N,12130.9186,E,22.82,318.90,260519,,,A*52
$GPGGA,103019.000,2513.4167,N,12130.9186,E,1,12,0.9,236.9,M,16.7,M,,0000*54
$GPGSA,A,3,17,19,06,09,42,195,193,50,02,23,05,12,1.8,0.9,1.5*37
$GPGSV,4,1,16,02,33,308,46,04,40,116,32,05,29,233,19,06,51,359,43*79
$GPGSV,4,2,16,09,39,090,32,12,22,306,40,17,61,111,43,19,74,065,41*7B
$GPGSV,4,3,16,23,18,054,38,28,14,175,,40,13,260,,41,38,242,27*7A
$GPGSV,4,4,16,42,51,134,36,50,51,134,36,193,72,092,33,195,71,121,41*74
$GSENSORD,0.000,0.060,-0.250
$GPRMC,103020.000,A,2513.4216,N,12130.9138,E,23.87,319.02,260519,,,A*56
$GPGGA,103020.000,2513.4216,N,12130.9138,E,1,12,0.9,237.8,M,16.7,M,,0000*5E
$GPGSA,A,3,17,19,06,09,42,195,193,50,02,23,05,12,1.8,0.9,1.5*37
$GPGSV,4,1,16,02,33,308,46,04,40,116,31,05,29,233,20,06,51,359,42*71
$GPGSV,4,2,16,09,39,090,32,12,22,306,38,17,61,111,43,19,74,065,41*74
$GPGSV,4,3,16,23,18,054,38,28,14,175,,40,13,260,,41,38,242,31*7D
$GPGSV,4,4,16,42,51,134,36,50,51,134,36,193,72,092,32,195,71,121,41*75
$GSENSORD,0.120,0.000,-0.120
$GPRMC,103021.000,A,2513.4267,N,12130.9089,E,24.90,319.32,260519,,,A*58
$GPGGA,103021.000,2513.4267,N,12130.9089,E,1,12,0.9,238.7,M,16.7,M,,0000*52
$GPGSA,A,3,17,19,06,09,42,195,193,50,02,23,05,12,1.8,0.9,1.5*37
$GPGSV,4,1,16,02,33,308,45,04,40,116,30,05,29,233,19,06,51,359,43*78
$GPGSV,4,2,16,09,39,090,32,12,22,306,39,17,61,111,41,19,74,066,41*74
$GPGSV,4,3,16,23,18,054,37,28,14,175,,40,13,260,,41,38,242,*70
$GPGSV,4,4,16,42,51,134,36,50,51,134,36,193,72,092,32,195,71,121,42*76
$GSENSORD,0.060,0.060,-0.120
$GPRMC,103022.000,A,2513.4321,N,12130.9038,E,25.73,319.45,260519,,,A*5E
$GPGGA,103022.000,2513.4321,N,12130.9038,E,1,12,0.9,239.5,M,16.7,M,,0000*5B
$GPGSA,A,3,17,19,06,09,42,195,193,50,02,23,05,12,1.8,0.9,1.5*37
$GPGSV,4,1,16,02,33,308,43,04,40,116,30,05,29,233,17,06,51,359,43*70
$GPGSV,4,2,16,09,39,090,32,12,22,306,33,17,61,111,41,19,74,066,41*7E
$GPGSV,4,3,16,23,18,054,37,28,14,175,,40,13,260,,41,38,242,*70
$GPGSV,4,4,16,42,51,134,36,50,51,134,36,193,72,092,32,195,71,121,41*75
$GSENSORD,0.000,0.000,0.000
$GPRMC,103023.000,A,2513.4377,N,12130.8987,E,26.41,320.85,260519,,,A*54
$GPGGA,103023.000,2513.4377,N,12130.8987,E,1,12,0.9,240.3,M,16.7,M,,0000*5D
$GPGSA,A,3,17,19,06,09,42,195,193,50,02,23,05,12,1.8,0.9,1.5*37
$GPGSV,4,1,16,02,33,308,44,04,40,116,29,05,29,233,19,06,51,359,42*70
$GPGSV,4,2,16,09,39,090,27,12,22,306,42,17,61,111,39,19,74,066,40*72
$GPGSV,4,3,16,23,18,054,29,28,14,175,,40,13,260,,41,38,242,*7F
$GPGSV,4,4,16,42,51,134,33,50,51,134,36,193,72,092,31,195,71,121,42*70
$GSENSORD,-0.060,-0.060,-0.060
$GPRMC,103024.000,A,2513.4434,N,12130.8939,E,26.12,323.36,260519,,,A*5B
$GPGGA,103024.000,2513.4434,N,12130.8939,E,1,12,0.9,240.7,M,16.7,M,,0000*5B
$GPGSA,A,3,17,19,06,09,42,195,193,50,02,23,05,12,1.8,0.9,1.5*37
$GPGSV,4,1,16,02,33,308,46,04,40,116,30,05,29,233,21,06,51,359,40*73
$GPGSV,4,2,16,09,39,090,32,12,22,306,41,17,61,111,39,19,74,066,42*77
$GPGSV,4,3,16,23,18,054,29,28,14,175,,40,13,260,,41,38,242,*7F
$GPGSV,4,4,16,42,51,134,34,50,51,134,36,193,72,092,31,195,71,121,42*77
$GSENSORD,-0.060,0.060,-0.060
$GPRMC,103025.000,A,2513.4494,N,12130.8895,E,25.94,327.25,260519,,,A*5C
$GPGGA,103025.000,2513.4494,N,12130.8895,E,1,12,0.9,241.1,M,16.7,M,,0000*50
$GPGSA,A,3,17,19,06,09,42,195,193,50,02,23,05,12,1.8,0.9,1.5*37
$GPGSV,4,1,16,02,33,308,45,04,40,116,32,05,29,233,34,06,51,359,39*78
$GPGSV,4,2,16,09,39,090,32,12,22,306,36,17,61,111,40,19,74,066,42*79
$GPGSV,4,3,16,23,18,054,20,28,14,175,,40,13,260,,41,38,242,*76
$GPGSV,4,4,16,42,51,134,33,50,51,134,35,193,72,092,31,195,71,121,41*70
$GSENSORD,0.000,0.120,0.000
$GPRMC,103026.000,A,2513.4554,N,12130.8855,E,25.13,329.68,260519,,,A*56
$GPGGA,103026.000,2513.4554,N,12130.8855,E,1,12,0.9,241.4,M,16.7,M,,0000*57
$GPGSA,A,3,17,19,06,09,42,195,193,50,02,23,05,12,1.8,0.9,1.5*37
$GPGSV,4,1,16,02,33,308,44,04,40,116,32,05,29,233,39,06,51,359,40*7A
$GPGSV,4,2,16,09,39,090,32,12,22,306,30,17,61,111,40,19,74,066,42*7F
$GPGSV,4,3,16,23,18,054,31,28,14,175,,40,13,260,,41,38,242,*76
$GPGSV,4,4,16,42,51,134,33,50,51,134,34,193,72,092,32,195,71,121,42*71
$GSENSORD,-0.120,0.250,-0.060
$GPRMC,103027.000,A,2513.4610,N,12130.8816,E,23.69,327.20,260519,,,A*5A
$GPGGA,103027.000,2513.4610,N,12130.8816,E,1,12,0.9,241.8,M,16.7,M,,0000*5E
$GPGSA,A,3,17,19,06,09,42,195,193,50,02,23,05,12,1.8,0.9,1.5*37
$GPGSV,4,1,16,02,33,308,44,04,40,116,33,05,29,233,36,06,51,359,40*74
$GPGSV,4,2,16,09,39,090,32,12,22,306,30,17,61,111,40,19,74,066,42*7F
$GPGSV,4,3,16,23,18,054,32,28,14,175,,40,13,260,,41,38,242,*75
$GPGSV,4,4,16,42,51,134,33,50,51,134,33,193,72,092,32,195,71,121,41*75
$GSENSORD,0.000,0.310,-0.120
$GPRMC,103028.000,A,2513.4659,N,12130.8773,E,22.09,318.32,260519,,,A*5C
$GPGGA,103028.000,2513.4659,N,12130.8773,E,1,12,0.9,242.2,M,16.7,M,,0000*59
$GPGSA,A,3,17,19,06,09,42,195,193,50,02,23,05,12,1.8,0.9,1.5*37
$GPGSV,4,1,16,02,33,308,45,04,40,116,28,05,29,233,39,06,51,359,41*71
$GPGSV,4,2,16,09,39,090,27,12,22,306,37,17,61,111,42,19,74,066,42*7E
$GPGSV,4,3,16,23,18,054,32,28,14,175,16,40,13,260,,41,38,242,*72
$GPGSV,4,4,16,42,51,134,37,50,51,134,36,193,72,092,32,195,71,121,41*74
$GSENSORD,-0.120,0.250,-0.120
$GPRMC,103029.000,A,2513.4697,N,12130.8723,E,20.87,306.84,260519,,,A*5C
$GPGGA,103029.000,2513.4697,N,12130.8723,E,1,12,0.9,242.8,M,16.7,M,,0000*55
$GPGSA,A,3,17,19,06,09,42,195,193,50,02,23,05,12,1.8,0.9,1.5*37
$GPGSV,4,1,16,02,33,308,45,04,40,116,37,05,29,233,42,06,51,359,43*71
$GPGSV,4,2,16,09,39,090,27,12,22,306,41,17,61,111,44,19,74,066,40*7B
$GPGSV,4,3,16,23,18,054,26,28,14,175,19,40,13,260,,41,38,242,40*7C
$GPGSV,4,4,16,42,51,134,36,50,51,134,36,193,72,092,31,195,71,121,41*76
$GSENSORD,0.060,0.250,-0.180
$GPRMC,103030.000,A,2513.4724,N,12130.8668,E,20.18,294.36,260519,,,A*56
$GPGGA,103030.000,2513.4724,N,12130.8668,E,1,12,0.9,243.8,M,16.7,M,,0000*5B
$GPGSA,A,3,17,19,06,09,42,195,193,28,50,02,23,05,1.8,0.9,1.5*3E
$GPGSV,4,1,16,02,33,308,45,04,40,116,41,05,29,233,43,06,51,359,44*76
$GPGSV,4,2,16,09,39,090,33,12,22,306,42,17,61,111,41,19,74,066,40*78
$GPGSV,4,3,16,23,18,054,31,28,14,175,23,40,13,260,,41,38,242,41*72
$GPGSV,4,4,16,42,51,134,31,50,51,134,28,193,72,092,35,195,71,121,41*7A
$GSENSORD,0.120,0.310,0.000
$GPRMC,103031.000,A,2513.4738,N,12130.8610,E,19.58,281.97,260519,,,A*54
$GPGGA,103031.000,2513.4738,N,12130.8610,E,1,12,1.0,244.7,M,16.7,M,,0000*58
$GPGSA,A,3,17,19,06,09,42,195,193,50,02,23,05,12,1.8,1.0,1.5*3F
$GPGSV,4,1,16,02,33,308,41,04,40,116,36,05,29,233,46,06,51,359,43*70
$GPGSV,4,2,16,09,39,090,38,12,22,306,39,17,61,111,35,19,74,066,36*7D
$GPGSV,4,3,16,23,18,054,23,28,14,175,23,41,38,242,44,42,51,134,27*77
$GPGSV,4,4,16,50,51,134,27,193,72,092,35,194,13,173,24,195,71,121,40*4F
$GSENSORD,0.120,0.310,-0.120
$GPRMC,103032.000,A,2513.4740,N,12130.8550,E,19.58,267.16,260519,,,A*5E
$GPGGA,103032.000,2513.4740,N,12130.8550,E,1,11,1.1,246.0,M,16.7,M,,0000*54
$GPGSA,A,3,17,19,06,09,195,193,50,02,23,05,12,,1.9,1.1,1.5*39
$GPGSV,4,1,16,02,33,308,42,04,40,116,28,05,29,233,47,06,51,359,32*7B
$GPGSV,4,2,16,09,39,090,41,12,22,306,36,17,61,111,25,19,74,066,32*79
$GPGSV,4,3,16,23,18,054,23,28,14,175,24,40,13,260,,41,38,242,44*73
$GPGSV,4,4,16,50,51,134,30,193,72,092,38,194,13,173,23,195,71,121,37*43
$GSENSORD,0.060,0.060,-0.060
$GPRMC,103033.000,A,2513.4731,N,12130.8490,E,20.42,258.66,260519,,,A*5E
$GPGGA,103033.000,2513.4731,N,12130.8490,E,1,12,0.8,246.5,M,16.7,M,,0000*50
$GPGSA,A,3,17,19,06,09,195,193,28,02,23,194,05,12,1.4,0.8,1.1*0B
$GPGSV,4,1,16,02,33,308,39,04,40,116,29,05,29,233,43,06,51,359,35*75
$GPGSV,4,2,16,09,39,090,38,12,22,306,36,17,61,111,31,19,74,066,38*78
$GPGSV,4,3,16,23,18,054,22,28,14,175,25,40,13,260,,41,38,242,45*72
$GPGSV,4,4,16,42,51,134,,193,72,092,39,194,13,173,24,195,71,121,36*44
$GSENSORD,0.120,0.000,0.000
$GPRMC,103034.000,A,2513.4718,N,12130.8426,E,21.53,256.85,260519,,,A*5D
$GPGGA,103034.000,2513.4718,N,12130.8426,E,1,12,0.8,247.2,M,16.7,M,,0000*57
$GPGSA,A,3,17,19,06,09,195,193,28,50,02,23,194,05,1.3,0.8,1.1*0A
$GPGSV,4,1,16,02,33,308,34,04,40,116,27,05,29,233,47,06,51,359,35*72
$GPGSV,4,2,16,09,39,090,35,12,22,306,29,17,61,111,37,19,74,066,40*72
$GPGSV,4,3,16,23,18,054,23,28,14,175,23,40,13,260,,41,38,242,45*75
$GPGSV,4,4,16,50,51,134,34,193,72,092,41,194,13,173,22,195,71,121,34*4B
$GSENSORD,0.120,0.000,-0.060
$GPRMC,103035.000,A,2513.4704,N,12130.8360,E,22.18,256.50,260519,,,A*50
$GPGGA,103035.000,2513.4704,N,12130.8360,E,1,12,0.8,248.2,M,16.7,M,,0000*51
$GPGSA,A,3,17,19,09,42,195,193,28,50,02,23,194,05,1.5,0.8,1.2*0F
$GPGSV,4,1,16,02,33,308,33,04,40,116,26,05,29,233,36,06,51,359,31*76
$GPGSV,4,2,16,09,39,090,35,12,22,306,31,17,61,111,38,19,74,066,40*74
$GPGSV,4,3,16,23,18,054,25,28,14,175,20,41,38,242,47,42,51,134,35*72
$GPGSV,4,4,16,50,51,134,37,193,72,092,39,194,13,173,19,195,71,121,34*4F
$GSENSORD,-0.060,0.060,-0.120
$GPRMC,103036.000,A,2513.4691,N,12130.8291,E,23.05,258.30,260519,,,A*54
$GPGGA,103036.000,2513.4691,N,12130.8291,E,1,12,0.8,249.0,M,16.7,M,,0000*53
$GPGSA,A,3,17,19,06,09,42,195,193,28,50,02,23,05,1.4,0.8,1.2*34
$GPGSV,4,1,16,02,33,308,38,04,40,116,26,05,29,233,28,06,51,359,30*73
$GPGSV,4,2,16,09,39,090,34,12,22,306,40,17,61,111,39,19,74,066,41*73
$GPGSV,4,3,16,23,18,054,24,28,14,175,18,40,13,260,,41,38,242,44*7B
$GPGSV,4,4,16,42,51,134,35,50,51,134,36,193,72,092,38,195,71,121,35*7F
$GSENSORD,-0.120,0.120,-0.060
$GPRMC,103037.000,A,2513.4679,N,12130.8225,E,21.76,257.63,260519,,,A*53
$GPGGA,103037.000,2513.4679,N,12130.8225,E,1,12,0.8,249.9,M,16.7,M,,0000*52
$GPGSA,A,3,17,19,06,09,42,195,193,28,50,02,23,05,1.4,0.8,1.2*34
$GPGSV,4,1,16,02,33,308,38,04,40,116,26,05,29,233,44,06,51,359,34*7D
$GPGSV,4,2,16,09,39,090,34,12,22,306,36,17,61,111,37,19,74,066,41*7C
$GPGSV,4,3,16,23,18,054,21,28,14,175,14,40,13,260,,41,38,242,45*73
$GPGSV,4,4,16,42,51,134,34,50,51,134,32,193,72,092,39,195,71,121,35*7B
$GSENSORD,-0.120,0.500,-0.120
$GPRMC,103038.000,A,2513.4662,N,12130.8165,E,19.78,249.01,260519,,,A*5F
$GPGGA,103038.000,2513.4662,N,12130.8165,E,1,12,0.8,251.1,M,16.7,M,,0000*51
$GPGSA,A,3,17,19,06,09,42,195,193,28,50,02,23,05,1.4,0.8,1.2*34
$GPGSV,4,1,16,02,33,308,41,04,40,116,26,05,29,233,47,06,51,359,24*71
$GPGSV,4,2,16,09,39,090,34,12,22,306,42,17,61,111,42,19,74,066,39*72
$GPGSV,4,3,16,23,18,054,25,28,14,175,12,40,13,260,,41,38,242,43*77
$GPGSV,4,4,16,42,51,134,30,50,51,134,31,193,72,092,38,195,71,121,34*7C
$GSENSORD,-0.180,0.000,0.000
$GPRMC,103039.000,A,2513.4632,N,12130.8121,E,17.73,226.29,260519,,,A*5D
$GPGGA,103039.000,2513.4632,N,12130.8121,E,1,12,0.8,251.7,M,16.7,M,,0000*53
$GPGSA,A,3,17,19,06,09,42,195,193,28,02,23,05,12,1.4,0.8,1.2*32
$GPGSV,4,1,16,02,33,308,37,04,40,116,27,05,29,233,43,06,51,359,34*74
$GPGSV,4,2,16,09,39,090,22,12,22,306,38,17,61,111,32,19,74,066,41*70
$GPGSV,4,3,16,23,18,054,25,28,14,175,24,40,13,260,,41,38,242,41*70
$GPGSV,4,4,16,42,51,134,28,193,72,092,35,194,13,173,21,195,71,121,34*45
$GSENSORD,-0.120,0.370,-0.120
$GPRMC,103040.000,A,2513.4593,N,12130.8095,E,16.28,202.24,260519,,,A*51
$GPGGA,103040.000,2513.4593,N,12130.8095,E,1,12,0.8,252.7,M,16.7,M,,0000*58
$GPGSA,A,3,17,19,06,09,42,195,193,28,02,23,194,05,1.3,0.8,1.1*09
$GPGSV,4,1,16,02,33,308,30,04,40,116,27,05,29,233,40,06,51,359,37*73
$GPGSV,4,2,16,09,39,090,27,12,22,306,31,17,61,111,41,19,74,066,37*79
$GPGSV,4,3,16,23,18,054,23,28,14,175,26,40,13,260,,41,38,242,39*7B
$GPGSV,4,4,16,42,51,134,31,193,72,092,30,194,13,173,29,195,71,121,41*42
$GSENSORD,0.120,0.310,-0.120
$GPRMC,103041.000,A,2513.4547,N,12130.8086,E,17.15,185.37,260519,,,A*5A
$GPGGA,103041.000,2513.4547,N,12130.8086,E,1,12,0.8,253.6,M,16.7,M,,0000*52
$GPGSA,A,3,17,19,06,09,42,195,193,28,02,23,05,12,1.4,0.8,1.2*32
$GPGSV,4,1,16,02,33,308,22,04,40,116,27,05,29,233,32,06,51,359,45*70
$GPGSV,4,2,16,09,39,090,33,12,22,306,23,17,61,111,31,19,74,066,31*7E
$GPGSV,4,3,16,23,18,054,24,28,14,175,27,40,13,260,,41,38,242,28*7D
$GPGSV,4,4,16,42,51,134,29,193,72,092,39,194,13,173,26,195,71,121,41*4D
$GSENSORD,0.000,0.000,0.000
$GPRMC,103042.000,A,2513.4499,N,12130.8094,E,17.99,165.93,260519,,,A*5C
$GPGGA,103042.000,2513.4499,N,12130.8094,E,1,12,0.8,254.7,M,16.7,M,,0000*56
$GPGSA,A,3,17,19,06,09,42,195,193,28,02,23,194,05,1.3,0.8,1.1*09
$GPGSV,4,1,16,02,33,308,24,04,40,116,41,05,29,233,42,06,51,359,39*7A
$GPGSV,4,2,16,09,39,090,36,12,22,306,24,17,61,111,40,19,74,066,38*73
$GPGSV,4,3,16,23,18,054,22,28,14,175,24,40,13,260,,41,38,242,38*79
$GPGSV,4,4,16,42,51,134,39,193,72,092,39,194,13,173,24,195,71,121,42*4D
$GSENSORD,0.120,0.180,-0.060
$GPRMC,103043.000,A,2513.4449,N,12130.8115,E,19.47,157.81,260519,,,A*57
$GPGGA,103043.000,2513.4449,N,12130.8115,E,1,11,1.1,255.0,M,16.7,M,,0000*5F
$GPGSA,A,3,17,19,06,09,42,195,193,28,02,194,05,,2.1,1.1,1.7*07
$GPGSV,4,1,16,02,33,308,26,04,40,116,45,05,29,233,37,06,51,359,32*75
$GPGSV,4,2,16,09,39,090,40,12,22,306,,17,61,111,36,19,74,066,43*79
$GPGSV,4,3,16,23,18,054,,28,14,175,23,40,13,260,,41,38,242,35*73
$GPGSV,4,4,16,42,51,134,36,193,72,092,41,194,13,173,26,195,71,121,42*4F
$GSENSORD,0.180,0.000,0.000
$GPRMC,103044.000,A,2513.4398,N,12130.8142,E,20.67,153.11,260519,,,A*5C
$GPGGA,103044.000,2513.4398,N,12130.8142,E,1,11,1.3,256.3,M,16.7,M,,0000*53
$GPGSA,A,3,17,19,09,42,195,193,28,50,02,194,05,,2.2,1.3,1.8*0A
$GPGSV,4,1,16,02,33,308,31,04,40,116,44,05,29,233,34,06,51,359,27*75
$GPGSV,4,2,16,09,39,090,39,12,22,306,22,17,61,111,35,19,74,066,43*74
$GPGSV,4,3,16,23,18,054,25,28,14,175,22,41,38,242,36,42,51,134,37*74
$GPGSV,4,4,16,50,51,134,37,193,72,092,41,194,13,173,29,195,71,121,41*41
$GSENSORD,0.250,0.120,0.120
$GPRMC,103045.000,A,2513.4345,N,12130.8172,E,21.65,153.49,260519,,,A*50
$GPGGA,103045.000,2513.4345,N,12130.8172,E,1,12,0.8,257.3,M,16.7,M,,0000*59
$GPGSA,A,3,17,19,06,09,42,195,193,28,50,02,23,194,1.3,0.8,1.1*09
$GPGSV,4,1,16,02,33,308,32,04,40,116,44,05,29,233,31,06,51,359,29*7D
$GPGSV,4,2,16,09,39,090,40,12,22,306,30,17,61,111,35,19,74,066,43*79
$GPGSV,4,3,16,23,18,054,32,28,14,175,24,41,38,242,33,42,51,134,37*71
$GPGSV,4,4,16,50,51,134,37,193,72,092,39,194,13,173,30,195,71,121,40*47
$GSENSORD,0.120,0.060,-0.180
$GPRMC,103046.000,A,2513.4290,N,12130.8203,E,22.36,153.05,260519,,,A*52
$GPGGA,103046.000,2513.4290,N,12130.8203,E,1,12,0.8,258.4,M,16.7,M,,0000*5E
$GPGSA,A,3,17,19,06,09,42,195,193,28,50,02,23,194,1.4,0.8,1.2*0D
$GPGSV,4,1,16,02,33,308,32,04,40,116,44,05,29,233,35,06,51,359,29*79
$GPGSV,4,2,16,09,39,090,38,12,22,306,31,17,61,111,34,19,74,066,43*76
$GPGSV,4,3,16,23,18,054,28,28,14,175,24,41,38,242,36,42,51,134,38*70
$GPGSV,4,4,16,50,51,134,37,193,72,092,40,194,13,173,30,195,71,121,41*48
$GSENSORD,0.000,0.120,0.000
$GPRMC,103047.000,A,2513.4234,N,12130.8234,E,22.80,153.28,260519,,,A*5B
$GPGGA,103047.000,2513.4234,N,12130.8234,E,1,12,0.8,260.0,M,16.7,M,,0000*5A
$GPGSA,A,3,17,19,06,09,42,195,193,28,50,02,23,194,1.3,0.8,1.1*09
$GPGSV,4,1,16,02,33,308,32,04,40,116,43,05,29,233,32,06,51,359,30*71
$GPGSV,4,2,16,09,39,090,39,12,22,306,31,17,61,111,34,19,74,066,43*77
$GPGSV,4,3,16,23,18,054,27,28,14,175,25,41,38,242,36,42,51,134,38*7E
$GPGSV,4,4,16,50,51,134,38,193,72,092,40,194,13,173,29,195,71,121,42*4C
$GSENSORD,0.180,0.120,-0.060
$GPRMC,103048.000,A,2513.4176,N,12130.8264,E,23.16,154.68,260519,,,A*59
$GPGGA,103048.000,2513.4176,N,12130.8264,E,1,12,0.8,261.5,M,16.7,M,,0000*51
$GPGSA,A,3,17,19,06,09,42,195,193,28,50,02,23,194,1.4,0.8,1.2*0D
$GPGSV,4,1,16,02,33,308,32,04,40,116,44,05,29,233,28,06,51,359,31*7C
$GPGSV,4,2,16,09,39,090,35,12,22,306,25,17,61,111,33,19,74,066,43*79
$GPGSV,4,3,16,23,18,054,26,28,14,175,35,41,38,242,34,42,51,134,37*73
$GPGSV,4,4,16,50,51,134,38,193,72,092,40,194,13,173,35,195,71,121,42*41
$GSENSORD,0.120,0.060,0.060
$GPRMC,103049.000,A,2513.4119,N,12130.8295,E,22.90,153.61,260519,,,A*5E
$GPGGA,103049.000,2513.4119,N,12130.8295,E,1,12,0.8,263.0,M,16.7,M,,0000*50
$GPGSA,A,3,17,19,06,09,42,195,193,28,50,02,23,194,1.3,0.8,1.1*09
$GPGSV,4,1,16,02,33,308,27,04,40,116,43,05,29,233,28,06,51,359,31*7F
$GPGSV,4,2,16,09,39,090,38,12,22,306,26,17,61,111,33,19,74,066,42*76
$GPGSV,4,3,16,23,18,054,25,28,14,175,27,41,38,242,30,42,51,134,38*78
$GPGSV,4,4,16,50,51,134,37,193,72,092,39,194,13,173,23,195,71,122,42*44
$GSENSORD,0.000,0.000,0.000
$GPRMC,103050.000,A,2513.4061,N,12130.8324,E,22.72,156.05,260519,,,A*58
$GPGGA,103050.000,2513.4061,N,12130.8324,E,1,12,0.8,264.7,M,16.7,M,,0000*5D
$GPGSA,A,3,17,19,06,09,42,195,193,28,50,02,23,194,1.3,0.8,1.1*09
$GPGSV,4,1,16,02,33,308,33,04,40,116,42,05,29,233,31,06,51,359,30*72
$GPGSV,4,2,16,09,39,090,38,12,22,306,26,17,61,111,32,19,74,066,42*77
$GPGSV,4,3,16,23,18,054,26,28,14,175,26,41,38,242,38,42,51,134,38*72
$GPGSV,4,4,16,50,51,134,38,193,72,092,39,194,13,173,23,195,71,122,41*48
$GSENSORD,0.120,-0.120,-0.060
$GPRMC,103051.000,A,2513.4003,N,12130.8350,E,22.40,159.20,260519,,,A*57
$GPGGA,103051.000,2513.4003,N,12130.8350,E,1,12,0.8,266.3,M,16.7,M,,0000*5D
$GPGSA,A,3,17,19,06,09,42,195,193,28,50,02,23,194,1.3,0.8,1.1*09
$GPGSV,4,1,16,02,33,308,33,04,40,116,43,05,29,233,35,06,51,359,31*76
$GPGSV,4,2,16,09,39,090,39,12,22,306,25,17,61,111,34,19,74,066,43*72
$GPGSV,4,3,16,23,18,054,33,28,14,175,26,41,38,242,34,42,51,134,38*7A
$GPGSV,4,4,16,50,51,134,38,193,72,092,40,194,13,173,23,195,71,122,42*45
$GSENSORD,0.000,0.000,0.000
$GPRMC,103052.000,A,2513.3943,N,12130.8373,E,22.37,163.03,260519,,,A*57
$GPGGA,103052.000,2513.3943,N,12130.8373,E,1,12,0.8,267.7,M,16.7,M,,0000*50
$GPGSA,A,3,17,19,06,09,42,195,193,28,50,02,23,194,1.4,0.8,1.2*0D
$GPGSV,4,1,16,02,33,308,29,04,40,116,42,05,29,233,31,06,51,359,30*79
$GPGSV,4,2,16,09,39,090,40,12,22,306,23,17,61,111,36,19,74,066,42*79
$GPGSV,4,3,16,23,18,054,32,28,14,175,25,41,38,242,34,42,51,134,38*78
$GPGSV,4,4,16,50,51,134,40,193,72,092,38,194,13,173,38,195,71,122,39*43
$GSENSORD,0.120,-0.060,-0.120
$GPRMC,103053.000,A,2513.3883,N,12130.8391,E,23.03,167.61,260519,,,A*51
$GPGGA,103053.000,2513.3883,N,12130.8391,E,1,12,0.8,269.2,M,16.7,M,,0000*5B
$GPGSA,A,3,17,19,06,09,42,195,193,28,50,02,23,194,1.3,0.8,1.1*09
$GPGSV,4,1,16,02,34,308,22,04,40,116,41,05,29,233,44,06,51,359,35*71
$GPGSV,4,2,16,09,39,090,43,12,22,306,20,17,61,111,40,19,74,066,43*79
$GPGSV,4,3,16,23,18,054,31,28,14,175,35,41,38,242,40,42,51,134,39*78
$GPGSV,4,4,16,50,51,134,40,193,72,092,38,194,13,173,35,195,71,122,38*4F
$GSENSORD,0.120,0.120,-0.060
$GPRMC,103054.000,A,2513.3819,N,12130.8405,E,23.83,170.42,260519,,,A*50
$GPGGA,103054.000,2513.3819,N,12130.8405,E,1,12,0.8,270.6,M,16.7,M,,0000*59
$GPGSA,A,3,17,19,06,09,42,195,193,28,50,02,23,194,1.3,0.8,1.1*09
$GPGSV,4,1,16,02,34,308,30,04,40,116,33,05,29,233,30,06,51,359,38*79
$GPGSV,4,2,16,09,39,090,43,12,22,306,29,17,61,111,41,19,74,066,41*73
$GPGSV,4,3,16,23,18,054,25,28,14,175,31,41,38,242,36,42,51,134,38*79
$GPGSV,4,4,16,50,51,134,39,193,72,092,38,194,13,173,38,195,71,122,38*4C
$GSENSORD,0.000,0.000,-0.120
$GPRMC,103055.000,A,2513.3754,N,12130.8416,E,24.70,171.66,260519,,,A*59
$GPGGA,103055.000,2513.3754,N,12130.8416,E,1,12,0.8,271.7,M,16.7,M,,0000*5C
$GPGSA,A,3,17,19,06,09,42,195,193,28,50,02,23,194,1.3,0.8,1.1*09
$GPGSV,4,1,16,02,34,308,29,04,41,115,40,05,29,233,45,06,51,359,40*7A
$GPGSV,4,2,16,09,39,090,36,12,22,306,28,17,61,111,40,19,74,066,41*71
$GPGSV,4,3,16,23,18,054,24,28,14,175,31,41,38,242,39,42,51,134,38*77
$GPGSV,4,4,16,50,51,134,39,193,72,092,40,194,13,173,35,195,71,122,37*41
$GSENSORD,0.120,0.180,-0.060
$GPRMC,103056.000,A,2513.3689,N,12130.8426,E,24.19,171.41,260519,,,A*52
$GPGGA,103056.000,2513.3689,N,12130.8426,E,1,12,0.8,272.8,M,16.7,M,,0000*51
$GPGSA,A,3,17,19,06,09,42,195,193,28,50,02,23,194,1.3,0.8,1.1*09
$GPGSV,4,1,16,02,34,308,29,04,41,115,32,05,30,233,33,06,51,359,40*76
$GPGSV,4,2,16,09,39,090,42,12,22,306,28,17,61,111,40,19,74,066,41*72
$GPGSV,4,3,16,23,18,054,22,28,14,175,38,41,38,242,33,42,51,134,40*7D
$GPGSV,4,4,16,50,51,134,41,193,72,092,38,194,13,173,41,195,71,122,37*42
$GSENSORD,0.000,0.000,-0.120
$GPRMC,103057.000,A,2513.3624,N,12130.8438,E,24.22,170.12,260519,,,A*54
$GPGGA,103057.000,2513.3624,N,12130.8438,E,1,12,0.8,274.0,M,16.7,M,,0000*56
$GPGSA,A,3,17,19,06,09,42,195,193,28,50,02,23,194,1.3,0.8,1.1*09
$GPGSV,4,1,16,02,34,308,28,04,41,115,33,05,30,233,38,06,51,360,42*75
$GPGSV,4,2,16,09,39,090,33,12,22,306,28,17,61,111,39,19,74,066,43*78
$GPGSV,4,3,16,23,18,054,20,28,14,175,31,41,38,242,32,42,51,134,37*77
$GPGSV,4,4,16,50,51,134,37,193,72,092,40,194,13,173,45,195,71,122,37*48
$GSENSORD,0.060,0.060,0.060
$GPRMC,103058.000,A,2513.3559,N,12130.8452,E,24.48,169.92,260519,,,A*52
$GPGGA,103058.000,2513.3559,N,12130.8452,E,1,12,0.8,275.0,M,16.7,M,,0000*5D
$GPGSA,A,3,17,19,06,09,42,195,193,28,50,02,23,194,1.3,0.8,1.1*09
$GPGSV,4,1,16,02,34,308,27,04,41,115,36,05,30,233,33,06,51,360,41*77
$GPGSV,4,2,16,09,39,090,37,12,22,306,26,17,61,111,38,19,74,066,42*72
$GPGSV,4,3,16,23,18,054,21,28,14,175,41,41,38,242,37,42,51,134,39*7A
$GPGSV,4,4,16,50,51,134,39,193,72,092,39,194,13,173,43,195,71,122,38*41
$GSENSORD,0.060,0.060,-0.120
$GPRMC,103059.000,A,2513.3490,N,12130.8461,E,24.97,171.76,260519,,,A*56
$GPGGA,103059.000,2513.3490,N,12130.8461,E,1,12,0.8,276.3,M,16.7,M,,0000*58
$GPGSA,A,3,17,19,06,09,42,195,193,28,50,02,23,194,1.3,0.8,1.1*09
$GPGSV,4,1,16,02,34,308,26,04,41,115,39,05,30,233,31,06,51,360,40*7A
$GPGSV,4,2,16,09,39,090,39,12,22,306,25,17,61,111,39,19,74,066,41*7D
$GPGSV,4,3,16,23,18,054,21,28,14,175,38,41,38,242,36,42,51,134,39*75
$GPGSV,4,4,16,50,51,134,39,193,72,092,38,194,13,173,43,195,71,122,38*40
$GSENSORD,0.120,0.120,0.000
$GPRMC,103100.000,A,2513.3420,N,12130.8472,E,25.50,173.44,260519,,,A*5B
$GPGGA,103100.000,2513.3420,N,12130.8472,E,1,12,0.8,277.4,M,16.7,M,,0000*5A
$GPGSA,A,3,17,19,06,09,42,195,193,28,50,02,23,194,1.3,0.8,1.1*09
$GPGSV,4,1,16,02,34,308,25,04,41,115,35,05,30,233,30,06,51,360,40*74
$GPGSV,4,2,16,09,39,089,38,12,22,306,23,17,61,111,41,19,74,066,42*7E
$GPGSV,4,3,16,23,18,054,22,28,14,175,41,41,38,242,37,42,51,134,41*76
$GPGSV,4,4,16,50,51,134,42,193,72,092,38,194,13,173,45,195,71,122,36*44
$GSENSORD,0.060,0.120,-0.120
$GPRMC,103101.000,A,2513.3351,N,12130.8480,E,25.24,174.35,260519,,,A*54
$GPGGA,103101.000,2513.3351,N,12130.8480,E,1,12,0.8,278.3,M,16.7,M,,0000*5F
$GPGSA,A,3,17,19,06,09,42,195,193,28,50,02,23,194,1.3,0.8,1.1*09
$GPGSV,4,1,16,02,34,308,26,04,41,115,36,05,30,233,25,06,51,360,42*72
$GPGSV,4,2,16,09,39,089,35,12,22,306,22,17,61,111,39,19,74,066,42*7D
$GPGSV,4,3,16,23,18,054,22,28,14,175,32,41,38,242,30,42,51,134,39*7A
$GPGSV,4,4,16,50,51,134,41,193,72,092,39,194,13,173,42,195,71,122,36*41
$GSENSORD,0.060,0.180,-0.060
$GPRMC,103102.000,A,2513.3282,N,12130.8487,E,24.90,176.11,260519,,,A*55
$GPGGA,103102.000,2513.3282,N,12130.8487,E,1,12,0.8,278.8,M,16.7,M,,0000*5F
$GPGSA,A,3,17,19,06,09,42,195,193,28,50,02,23,194,1.3,0.8,1.1*09
$GPGSV,4,1,16,02,34,308,25,04,41,115,38,05,30,233,31,06,51,360,39*76
$GPGSV,4,2,16,09,39,089,37,12,22,306,21,17,61,111,35,19,74,066,40*72
$GPGSV,4,3,16,23,18,054,21,28,14,175,41,41,38,242,37,42,51,134,38*7B
$GPGSV,4,4,16,50,51,134,37,193,72,092,39,194,13,173,43,195,71,122,36*41
$GSENSORD,0.000,0.000,0.000
$GPRMC,103103.000,A,2513.3215,N,12130.8492,E,23.98,177.89,260519,,,A*51
$GPGGA,103103.000,2513.3215,N,12130.8492,E,1,12,1.1,279.7,M,16.7,M,,0000*52
$GPGSA,A,3,17,19,06,09,42,195,193,28,50,02,194,05,1.9,1.1,1.5*0B
$GPGSV,4,1,16,02,34,308,24,04,41,115,36,05,30,233,30,06,51,360,42*74
$GPGSV,4,2,16,09,39,089,32,12,22,306,20,17,61,111,35,19,74,066,38*79
$GPGSV,4,3,16,23,18,054,,28,14,175,40,41,38,242,37,42,51,134,37*76
$GPGSV,4,4,16,50,51,134,37,193,72,092,39,194,13,173,38,195,71,122,35*4E
$GSENSORD,-0.120,-0.120,-0.120
$GPRMC,103104.000,A,2513.3150,N,12130.8492,E,23.23,182.66,260519,,,A*5F
$GPGGA,103104.000,2513.3150,N,12130.8492,E,1,12,1.1,280.1,M,16.7,M,,0000*57
$GPGSA,A,3,17,19,06,09,42,195,193,28,50,02,194,05,2.0,1.1,1.7*03
$GPGSV,4,1,16,02,34,308,30,04,41,115,42,05,30,233,29,06,51,360,42*7A
$GPGSV,4,2,16,09,39,089,37,12,22,306,,17,61,111,31,19,74,066,32*70
$GPGSV,4,3,16,23,18,054,20,28,14,175,31,41,38,242,31,42,51,134,34*77
$GPGSV,4,4,16,50,51,134,32,193,72,092,41,194,13,173,29,195,71,122,37*46
$GSENSORD,-0.060,-0.060,-0.060
$GPRMC,103105.000,A,2513.3086,N,12130.8480,E,22.89,192.61,260519,,,A*50
$GPGGA,103105.000,2513.3086,N,12130.8480,E,1,12,1.1,280.5,M,16.7,M,,0000*5B
$GPGSA,A,3,17,19,06,09,42,195,193,28,50,02,194,05,2.0,1.1,1.7*03
$GPGSV,4,1,16,02,34,308,21,04,41,115,39,05,30,233,37,06,51,360,41*7A
$GPGSV,4,2,16,09,39,089,36,12,22,306,,17,61,111,37,19,74,066,26*72
$GPGSV,4,3,16,23,18,054,21,28,14,175,31,40,13,260,,42,51,134,33*7B
$GPGSV,4,4,16,50,51,134,33,193,72,092,38,194,13,173,28,195,71,122,35*4A
$GSENSORD,-0.120,-0.120,-0.120
$GPRMC,103106.000,A,2513.3026,N,12130.8457,E,22.52,201.68,260519,,,A*55
$GPGGA,103106.000,2513.3026,N,12130.8457,E,1,12,1.0,281.0,M,16.7,M,,0000*5D
$GPGSA,A,3,17,19,06,09,42,195,193,28,50,02,23,194,1.5,1.0,1.1*06
$GPGSV,4,1,16,02,34,308,23,04,41,115,33,05,30,233,44,06,51,360,33*73
$GPGSV,4,2,16,09,39,089,37,12,22,306,18,17,61,111,37,19,74,066,38*75
$GPGSV,4,3,16,23,18,054,24,28,14,175,26,40,13,260,,42,51,134,37*7C
$GPGSV,4,4,16,50,51,134,39,193,72,092,36,194,13,173,28,195,71,122,40*4C
$GSENSORD,-0.120,-0.120,-0.060
$GPRMC,103107.000,A,2513.2971,N,12130.8419,E,23.49,215.03,260519,,,A*57
$GPGGA,103107.000,2513.2971,N,12130.8419,E,1,12,0.8,281.2,M,16.7,M,,0000*57
$GPGSA,A,3,17,19,06,09,42,195,193,28,50,02,23,194,1.3,0.8,1.1*09
$GPGSV,4,1,16,02,34,308,34,04,41,115,38,05,30,233,46,06,51,360,29*77
$GPGSV,4,2,16,09,39,089,37,12,22,306,29,17,61,111,40,19,74,066,37*78
$GPGSV,4,3,16,23,18,054,30,28,14,175,26,40,13,260,,42,51,134,34*7A
$GPGSV,4,4,16,50,51,134,36,193,72,092,28,194,13,173,26,195,71,122,41*43
$GSENSORD,0.000,0.000,-0.120
$GPRMC,103108.000,A,2513.2922,N,12130.8370,E,23.74,224.78,260519,,,A*56
$GPGGA,103108.000,2513.2922,N,12130.8370,E,1,12,0.8,281.6,M,16.7,M,,0000*52
$GPGSA,A,3,17,19,06,09,42,195,193,28,50,02,23,194,1.3,0.8,1.1*09
$GPGSV,4,1,16,02,34,308,24,04,41,115,35,05,30,233,48,06,51,360,38*75
$GPGSV,4,2,16,09,39,089,37,12,22,306,26,17,60,112,40,19,74,066,35*77
$GPGSV,4,3,16,23,18,054,25,28,14,175,25,40,13,260,,42,51,134,35*7C
$GPGSV,4,4,16,50,51,134,35,193,72,092,36,194,13,173,25,195,71,122,39*43
$GSENSORD,0.060,0.060,-0.060
$GPRMC,103109.000,A,2513.2878,N,12130.8314,E,24.07,230.47,260519,,,A*51
$GPGGA,103109.000,2513.2878,N,12130.8314,E,1,12,0.8,281.8,M,16.7,M,,0000*51
$GPGSA,A,3,17,19,06,09,42,195,193,28,50,02,23,194,1.3,0.8,1.1*09
$GPGSV,4,1,16,02,34,308,30,04,41,115,35,05,30,233,48,06,51,360,32*7A
$GPGSV,4,2,16,09,39,089,28,12,22,306,25,17,60,112,38,19,74,066,35*75
$GPGSV,4,3,16,23,18,054,25,28,14,175,24,40,13,260,,42,51,134,37*7F
$GPGSV,4,4,16,50,51,134,38,193,72,092,35,194,13,173,22,195,71,122,37*44
$GSENSORD,-0.120,0.060,-0.120
$GPRMC,103110.000,A,2513.2834,N,12130.8255,E,24.64,230.89,260519,,,A*52
$GPGGA,103110.000,2513.2834,N,12130.8255,E,1,12,0.8,281.8,M,16.7,M,,0000*55
$GPGSA,A,3,17,19,06,09,42,195,193,28,50,02,23,194,1.3,0.8,1.1*09
$GPGSV,4,1,16,02,34,308,35,04,41,115,35,05,30,233,48,06,51,360,32*7F
$GPGSV,4,2,16,09,39,089,26,12,22,306,32,17,60,112,36,19,74,068,35*7D
$GPGSV,4,3,16,23,18,054,26,28,14,175,24,40,13,260,,42,51,134,34*7F
$GPGSV,4,4,16,50,51,134,35,193,72,092,35,194,13,173,22,195,71,122,34*4A
$GSENSORD,-0.060,0.250,-0.060
$GPRMC,103111.000,A,2513.2786,N,12130.8199,E,25.29,226.70,260519,,,A*5F
$GPGGA,103111.000,2513.2786,N,12130.8199,E,1,12,0.8,282.1,M,16.7,M,,0000*5B
$GPGSA,A,3,17,19,06,09,42,195,193,28,50,02,23,194,1.3,0.8,1.1*09
$GPGSV,4,1,16,02,34,308,40,04,41,115,34,05,30,233,44,06,51,360,33*71
$GPGSV,4,2,16,09,39,089,32,12,22,306,39,17,60,112,38,19,74,068,34*7C
$GPGSV,4,3,16,23,18,054,23,28,14,175,34,41,38,242,39,42,51,134,35*78
$GPGSV,4,4,16,50,51,134,35,193,72,092,35,194,13,173,30,195,71,122,37*4A
$GSENSORD,-0.060,0.060,-0.120
$GPRMC,103112.000,A,2513.2734,N,12130.8144,E,25.98,224.31,260519,,,A*58
$GPGGA,103112.000,2513.2734,N,12130.8144,E,1,12,0.8,282.3,M,16.7,M,,0000*53
$GPGSA,A,3,17,19,06,09,42,195,193,28,50,02,23,194,1.3,0.8,1.1*09
$GPGSV,4,1,16,02,34,308,40,04,41,115,37,05,30,233,47,06,51,360,34*76
$GPGSV,4,2,16,09,39,089,33,12,22,306,38,17,60,112,38,19,74,068,34*7C
$GPGSV,4,3,16,23,18,054,23,28,14,175,30,41,38,242,38,42,51,134,35*7D
$GPGSV,4,4,16,50,51,134,34,193,72,092,35,194,13,173,30,195,71,122,37*4B
$GSENSORD,0.000,0.120,0.000
$GPRMC,103113.000,A,2513.2681,N,12130.8087,E,26.54,224.49,260519,,,A*54
$GPGGA,103113.000,2513.2681,N,12130.8087,E,1,12,0.8,282.5,M,16.7,M,,0000*55
$GPGSA,A,3,17,19,06,09,42,195,193,28,50,02,23,05,1.4,0.8,1.2*34
$GPGSV,4,1,16,02,34,308,34,04,41,115,37,05,30,233,47,06,51,360,30*71
$GPGSV,4,2,16,09,39,089,33,12,22,306,34,17,60,112,40,19,74,068,35*7E
$GPGSV,4,3,16,23,18,054,22,28,14,175,29,41,38,242,40,42,51,134,35*7B
$GPGSV,4,4,16,50,51,134,35,193,72,092,35,194,13,173,25,195,71,122,37*4E
$GSENSORD,-0.060,0.120,-0.120
$GPRMC,103114.000,A,2513.2628,N,12130.8028,E,26.95,224.23,260519,,,A*54
$GPGGA,103114.000,2513.2628,N,12130.8028,E,1,12,0.9,283.1,M,16.7,M,,0000*50
$GPGSA,A,3,17,19,06,09,42,195,193,50,02,23,05,12,1.8,0.9,1.5*37
$GPGSV,4,1,16,02,34,308,29,04,41,115,32,05,30,233,46,06,51,360,35*7C
$GPGSV,4,2,16,09,39,089,34,12,22,306,28,17,60,112,41,19,74,068,35*75
$GPGSV,4,3,16,23,18,054,22,28,14,175,,41,38,242,42,42,51,134,35*72
$GPGSV,4,4,16,50,51,134,35,193,72,092,35,194,13,173,23,195,71,122,40*48
$GSENSORD,0.060,-0.060,-0.120
$GPRMC,103115.000,A,2513.2578,N,12130.7968,E,26.24,228.06,260519,,,A*50
$GPGGA,103115.000,2513.2578,N,12130.7968,E,1,12,0.9,283.5,M,16.7,M,,0000*51
$GPGSA,A,3,17,19,06,09,42,195,193,50,02,23,05,12,1.8,0.9,1.5*37
$GPGSV,4,1,16,02,34,308,33,04,41,115,36,05,30,233,45,06,51,360,37*72
$GPGSV,4,2,16,09,39,089,30,12,22,306,33,17,60,112,40,19,74,068,35*7A
$GPGSV,4,3,16,23,18,054,22,28,14,175,,41,38,242,40,42,51,134,35*70
$GPGSV,4,4,16,50,51,134,35,193,72,092,35,194,13,173,20,195,71,122,39*45
$GSENSORD,0.000,-0.120,0.000
$GPRMC,103116.000,A,2513.2533,N,12130.7905,E,25.58,233.00,260519,,,A*53
$GPGGA,103116.000,2513.2533,N,12130.7905,E,1,12,0.9,284.3,M,16.7,M,,0000*57
$GPGSA,A,3,17,19,06,09,42,195,193,50,02,23,05,12,1.8,0.9,1.5*37
$GPGSV,4,1,16,02,34,308,28,04,41,115,35,05,30,233,46,06,51,360,34*7B
$GPGSV,4,2,16,09,39,089,22,12,22,306,33,17,60,112,36,19,74,068,36*7B
$GPGSV,4,3,16,23,18,054,29,28,14,175,,41,38,242,38,42,51,134,35*74
$GPGSV,4,4,16,50,51,134,36,193,72,092,34,194,13,173,19,195,71,122,38*4C
$GSENSORD,-0.060,-0.120,0.120
$GPRMC,103117.000,A,2513.2497,N,12130.7837,E,24.71,241.86,260519,,,A*5C
$GPGGA,103117.000,2513.2497,N,12130.7837,E,1,12,0.8,286.0,M,16.7,M,,0000*59
$GPGSA,A,3,17,19,06,09,42,195,193,50,02,23,194,05,1.4,0.8,1.2*02
